$GPGGA,005617.00,0607.70285,S,03812.38347,W,2,12,0.69,230.3,M,-13.0,M,,0000*7E
Latitude: -6.12838
Longitude: -38.20639
Numero de Satelites: 12
$GPGGA,005618.00,0607.70284,S,03812.38346,W,2,12,0.72,230.4,M,-13.0,M,,0000*7C
Latitude: -6.12838
Longitude: -38.20639
Numero de Satelites: 12
$GPGGA,005619.00,0607.70285,S,03812.38347,W,2,12,0.72,230.3,M,-13.0,M,,0000*7A
Latitude: -6.12838
Longitude: -38.20639
Numero de Satelites: 12
$GPGGA,005620.00,0607.70288,S,03812.38346,W,2,12,0.67,230.5,M,-13.0,M,,0000*7E
Latitude: -6.12838
Longitude: -38.20639
Numero de Satelites: 12
$GPGGA,005621.00,0607.70288,S,03812.38346,W,2,12,0.72,230.5,M,-13.0,M,,0000*7B
Latitude: -6.12838
Longitude: -38.20639
Numero de Satelites: 12
$GPGGA,005622.00,0607.70288,S,03812.38346,W,2,12,0.72,230.4,M,-13.0,M,,0000*79
Latitude: -6.12838
Longitude: -38.20639
Numero de Satelites: 12
$GPGGA,005623.00,0607.70291,S,03812.38347,W,2,12,0.67,230.5,M,-13.0,M,,0000*74
Latitude: -6.12838
Longitude: -38.20639
Numero de Satelites: 12
$GPGGA,005624.00,0607.70293,S,03812.38348,W,2,12,0.67,230.6,M,-13.0,M,,0000*7D
Latitude: -6.12838
Longitude: -38.20639
Numero de Satelites: 12
$GPGGA,005625.00,0607.70291,S,03812.38346,W,2,12,0.72,230.6,M,-13.0,M,,0000*74
Latitude: -6.12838
Longitude: -38.20639
Numero de Satelites: 12
$GPGGA,005626.00,0607.70292,S,03812.38346,W,2,12,0.67,230.5,M,-13.0,M,,0000*73
Latitude: -6.12838
Longitude: -38.20639
Numero de Satelites: 12
$GPGGA,005627.00,0607.70293,S,03812.38346,W,2,12,0.67,230.6,M,-13.0,M,,0000*70
Latitude: -6.12838
Longitude: -38.20639
Numero de Satelites: 12
$GPGGA,005628.00,0607.70296,S,03812.38346,W,2,12,0.67,230.6,M,-13.0,M,,0000*7A
Latitude: -6.12838
Longitude: -38.20639
Numero de Satelites: 12
$GPGGA,005629.00,0607.70299,S,03812.38346,W,2,12,0.67,230.7,M,-13.0,M,,0000*75
Latitude: -6.12838
Longitude: -38.20639
Numero de Satelites: 12
$GPGGA,005630.00,0607.70298,S,03812.38347,W,2,12,0.72,230.6,M,-13.0,M,,0000*78
Latitude: -6.12838
Longitude: -38.20639
Numero de Satelites: 12
$GPGGA,005631.00,0607.70299,S,03812.38347,W,2,12,0.67,230.5,M,-13.0,M,,0000*7F
Latitude: -6.12838
Longitude: -38.20639
Numero de Satelites: 12
$GPGGA,005632.00,0607.70302,S,03812.38349,W,2,12,0.67,230.5,M,-13.0,M,,0000*71
Latitude: -6.12838
Longitude: -38.20639
Numero de Satelites: 12
$GPGGA,005633.00,0607.70306,S,03812.38350,W,2,12,0.67,230.6,M,-13.0,M,,0000*7F
Latitude: -6.12838
Longitude: -38.20639
Numero de Satelites: 12
$GPGGA,005634.00,0607.70306,S,03812.38351,W,2,12,0.69,230.6,M,-13.0,M,,0000*77
Latitude: -6.12838
Longitude: -38.20639
Numero de Satelites: 12
$GPGGA,005635.00,0607.70307,S,03812.38351,W,2,12,0.65,230.6,M,-13.0,M,,0000*7B
Latitude: -6.12838
Longitude: -38.20639
Numero de Satelites: 12
$GPGGA,005636.00,0607.70309,S,03812.38352,W,2,12,0.65,230.6,M,-13.0,M,,0000*75
Latitude: -6.12838
Longitude: -38.20639
Numero de Satelites: 12
$GPGGA,005637.00,0607.70313,S,03812.38351,W,2,12,0.65,230.8,M,-13.0,M,,0000*72
Latitude: -6.12839
Longitude: -38.20639
Numero de Satelites: 12
$GPGGA,005638.00,0607.70313,S,03812.38351,W,2,12,0.69,230.7,M,-13.0,M,,0000*7E
Latitude: -6.12839
Longitude: -38.20639
Numero de Satelites: 12
$GPGGA,005639.00,0607.70316,S,03812.38352,W,2,12,0.65,230.7,M,-13.0,M,,0000*75
Latitude: -6.12839
Longitude: -38.20639
Numero de Satelites: 12
$GPGGA,005640.00,0607.70319,S,03812.38352,W,2,12,0.65,230.7,M,-13.0,M,,0000*74
Latitude: -6.12839
Longitude: -38.20639
Numero de Satelites: 12
$GPGGA,005641.00,0607.70322,S,03812.38352,W,2,12,0.65,230.9,M,-13.0,M,,0000*73
Latitude: -6.12839
Longitude: -38.20639
Numero de Satelites: 12
$GPGGA,005642.00,0607.70321,S,03812.38352,W,2,12,0.69,230.8,M,-13.0,M,,0000*7E
Latitude: -6.12839
Longitude: -38.20639
Numero de Satelites: 12
$GPGGA,005643.00,0607.70320,S,03812.38352,W,2,12,0.65,230.8,M,-13.0,M,,0000*72
Latitude: -6.12839
Longitude: -38.20639
Numero de Satelites: 12
$GPGGA,005644.00,0607.70321,S,03812.38353,W,2,12,0.67,230.8,M,-13.0,M,,0000*77
Latitude: -6.12839
Longitude: -38.20639
Numero de Satelites: 12
$GPGGA,005645.00,0607.70325,S,03812.38352,W,2,12,0.67,230.8,M,-13.0,M,,0000*73
Latitude: -6.12839
Longitude: -38.20639
Numero de Satelites: 12
$GPGGA,005646.00,0607.70324,S,03812.38352,W,2,12,0.72,230.7,M,-13.0,M,,0000*7A
Latitude: -6.12839
Longitude: -38.20639
Numero de Satelites: 12
$GPGGA,005647.00,0607.70324,S,03812.38351,W,2,12,0.67,230.6,M,-13.0,M,,0000*7D
Latitude: -6.12839
Longitude: -38.20639
Numero de Satelites: 12
$GPGGA,005648.00,0607.70324,S,03812.38350,W,2,12,0.67,230.6,M,-13.0,M,,0000*73
Latitude: -6.12839
Longitude: -38.20639
Numero de Satelites: 12
$GPGGA,005649.00,0607.70328,S,03812.38349,W,2,12,0.67,230.7,M,-13.0,M,,0000*77
Latitude: -6.12839
Longitude: -38.20639
Numero de Satelites: 12
$GPGGA,005650.00,0607.70327,S,03812.38348,W,2,12,0.72,230.6,M,-13.0,M,,0000*74
Latitude: -6.12839
Longitude: -38.20639
Numero de Satelites: 12
$GPGGA,005651.00,0607.70327,S,03812.38348,W,2,12,0.67,230.5,M,-13.0,M,,0000*72
Latitude: -6.12839
Longitude: -38.20639
Numero de Satelites: 12
$GPGGA,005652.00,0607.70328,S,03812.38348,W,2,12,0.67,230.5,M,-13.0,M,,0000*7E
Latitude: -6.12839
Longitude: -38.20639
Numero de Satelites: 12
$GPGGA,005653.00,0607.70330,S,03812.38348,W,2,12,0.67,230.7,M,-13.0,M,,0000*74
Latitude: -6.12839
Longitude: -38.20639
Numero de Satelites: 12
$GPGGA,005654.00,0607.70328,S,03812.38347,W,2,12,0.72,230.6,M,-13.0,M,,0000*70
Latitude: -6.12839
Longitude: -38.20639
Numero de Satelites: 12
$GPGGA,005655.00,0607.70327,S,03812.38347,W,2,12,0.67,230.5,M,-13.0,M,,0000*79
Latitude: -6.12839
Longitude: -38.20639
Numero de Satelites: 12
$GPGGA,005656.00,0607.70329,S,03812.38346,W,2,12,0.67,230.7,M,-13.0,M,,0000*77
Latitude: -6.12839
Longitude: -38.20639
Numero de Satelites: 12
$GPGGA,005657.00,0607.70332,S,03812.38344,W,2,12,0.67,231.0,M,-13.0,M,,0000*78
Latitude: -6.12839
Longitude: -38.20639
Numero de Satelites: 12
$GPGGA,005658.00,0607.70330,S,03812.38343,W,2,12,0.72,231.0,M,-13.0,M,,0000*76
Latitude: -6.12839
Longitude: -38.20639
Numero de Satelites: 12
$GPGGA,005659.00,0607.70329,S,03812.38343,W,2,12,0.67,231.0,M,-13.0,M,,0000*7B
Latitude: -6.12839
Longitude: -38.20639
Numero de Satelites: 12
$GPGGA,005700.00,0607.70330,S,03812.38342,W,2,12,0.67,231.0,M,-13.0,M,,0000*7F
Latitude: -6.12839
Longitude: -38.20639
Numero de Satelites: 12
$GPGGA,005701.00,0607.70331,S,03812.38340,W,2,12,0.67,231.1,M,-13.0,M,,0000*7C
Latitude: -6.12839
Longitude: -38.20639
Numero de Satelites: 12
$GPGGA,005702.00,0607.70329,S,03812.38338,W,2,12,0.72,231.1,M,-13.0,M,,0000*7D
Latitude: -6.12839
Longitude: -38.20639
Numero de Satelites: 12
$GPGGA,005703.00,0607.70330,S,03812.38337,W,2,12,0.67,231.1,M,-13.0,M,,0000*7F
Latitude: -6.12839
Longitude: -38.20639
Numero de Satelites: 12
$GPGGA,005704.00,0607.70330,S,03812.38336,W,2,12,0.67,231.2,M,-13.0,M,,0000*7A
Latitude: -6.12839
Longitude: -38.20639
Numero de Satelites: 12
$GPGGA,005705.00,0607.70331,S,03812.38336,W,2,12,0.67,231.3,M,-13.0,M,,0000*7B
Latitude: -6.12839
Longitude: -38.20639
Numero de Satelites: 12
$GPGGA,005706.00,0607.70328,S,03812.38335,W,2,12,0.72,231.2,M,-13.0,M,,0000*76
Latitude: -6.12839
Longitude: -38.20639
Numero de Satelites: 12
$GPGGA,005707.00,0607.70328,S,03812.38335,W,2,12,0.67,231.2,M,-13.0,M,,0000*73
Latitude: -6.12839
Longitude: -38.20639
Numero de Satelites: 12
$GPGGA,005708.00,0607.70330,S,03812.38334,W,2,12,0.67,231.4,M,-13.0,M,,0000*72
Latitude: -6.12839
Longitude: -38.20639
Numero de Satelites: 12
$GPGGA,005709.00,0607.70332,S,03812.38334,W,2,12,0.67,231.6,M,-13.0,M,,0000*73
Latitude: -6.12839
Longitude: -38.20639
Numero de Satelites: 12
$GPGGA,005710.00,0607.70330,S,03812.38333,W,2,12,0.72,231.5,M,-13.0,M,,0000*79
Latitude: -6.12839
Longitude: -38.20639
Numero de Satelites: 12
$GPGGA,005711.00,0607.70330,S,03812.38333,W,2,12,0.67,231.5,M,-13.0,M,,0000*7C
Latitude: -6.12839
Longitude: -38.20639
Numero de Satelites: 12
$GPGGA,005712.00,0607.70331,S,03812.38332,W,2,12,0.67,231.6,M,-13.0,M,,0000*7C
Latitude: -6.12839
Longitude: -38.20639
Numero de Satelites: 12
$GPGGA,005713.00,0607.70330,S,03812.38330,W,2,12,0.72,231.5,M,-13.0,M,,0000*79
Latitude: -6.12839
Longitude: -38.20639
Numero de Satelites: 12
$GPGGA,005714.00,0607.70330,S,03812.38330,W,2,12,0.67,231.4,M,-13.0,M,,0000*7B
Latitude: -6.12839
Longitude: -38.20639
Numero de Satelites: 12
$GPGGA,005715.00,0607.70332,S,03812.38329,W,2,12,0.67,231.4,M,-13.0,M,,0000*70
Latitude: -6.12839
Longitude: -38.20639
Numero de Satelites: 12
$GPGGA,005716.00,0607.70334,S,03812.38327,W,2,12,0.67,231.5,M,-13.0,M,,0000*7A
Latitude: -6.12839
Longitude: -38.20639
Numero de Satelites: 12
$GPGGA,005717.00,0607.70332,S,03812.38326,W,2,12,0.72,231.4,M,-13.0,M,,0000*79
Latitude: -6.12839
Longitude: -38.20639
Numero de Satelites: 12
$GPGGA,005718.00,0607.70332,S,03812.38325,W,2,11,0.71,231.5,M,-13.0,M,,0000*74
Latitude: -6.12839
Longitude: -38.20639
Numero de Satelites: 11
$GPGGA,005719.00,0607.70334,S,03812.38323,W,2,12,0.71,231.5,M,-13.0,M,,0000*76
Latitude: -6.12839
Longitude: -38.20639
Numero de Satelites: 12
$GPGGA,005720.00,0607.70333,S,03812.38321,W,2,12,0.76,231.4,M,-13.0,M,,0000*7F
Latitude: -6.12839
Longitude: -38.20639
Numero de Satelites: 12
$GPGGA,005721.00,0607.70333,S,03812.38319,W,2,12,0.71,231.5,M,-13.0,M,,0000*73
Latitude: -6.12839
Longitude: -38.20639
Numero de Satelites: 12
$GPGGA,005722.00,0607.70334,S,03812.38318,W,2,11,0.71,231.5,M,-13.0,M,,0000*75
Latitude: -6.12839
Longitude: -38.20639
Numero de Satelites: 11
$GPGGA,005723.00,0607.70334,S,03812.38318,W,2,11,0.71,231.6,M,-13.0,M,,0000*77
Latitude: -6.12839
Longitude: -38.20639
Numero de Satelites: 11
$GPGGA,005724.00,0607.70331,S,03812.38318,W,2,11,0.76,231.5,M,-13.0,M,,0000*71
Latitude: -6.12839
Longitude: -38.20639
Numero de Satelites: 11
$GPGGA,005725.00,0607.70332,S,03812.38317,W,2,11,0.71,231.6,M,-13.0,M,,0000*78
Latitude: -6.12839
Longitude: -38.20639
Numero de Satelites: 11
$GPGGA,005726.00,0607.70335,S,03812.38316,W,2,11,0.71,231.7,M,-13.0,M,,0000*7C
Latitude: -6.12839
Longitude: -38.20639
Numero de Satelites: 11
$GPGGA,005727.00,0607.70338,S,03812.38315,W,2,11,0.71,232.0,M,-13.0,M,,0000*77
Latitude: -6.12839
Longitude: -38.20639
Numero de Satelites: 11